[
  {
    "name": "Col du Tourmalet",
    "topOfTheAscent": 2115,
    "geoCoordinate": {
      "latitude": 42.9083885,
      "longitude": 0.1452852
    },
    "alternatives": [
      {
        "name": "Luz Saint Sauveur",
        "geoCoordinate": {
          "latitude": 42.8732642,
          "longitude": -0.0030853
        },
        "length": 18.3,
        "totalAscent": 1401,
        "difficulty": 1133,
        "averageGradient": 7.7
      },
      {
        "name": "Sainte-Marie de Campan",
        "geoCoordinate": {
          "latitude": 42.984611,
          "longitude": 0.2274947
        },
        "length": 16.9,
        "totalAscent": 1266,
        "difficulty": 1055,
        "averageGradient": 7.5
      }
    ]
  },
  {
    "name": "Col de Portet",
    "topOfTheAscent": 2115,
    "geoCoordinate": {
      "latitude": 42.8332285,
      "longitude": 0.236803
    },
    "alternatives": [
      {
        "name": "Saint Lary Soulan",
        "geoCoordinate": {
          "latitude": 42.826117,
          "longitude": 0.317891
        },
        "length": 16.1,
        "totalAscent": 1409,
        "difficulty": 1381,
        "averageGradient": 8.7
      }
    ]
  },
  {
    "name": "Col d'Aspin",
    "topOfTheAscent": 1490,
    "geoCoordinate": {
      "latitude": 42.9422104,
      "longitude": 0.327221
    },
    "alternatives": [
      {
        "name": "Arreau",
        "geoCoordinate": {
          "latitude": 42.9094358,
          "longitude": 0.3599414
        },
        "length": 12.4,
        "totalAscent": 802,
        "difficulty": 589,
        "averageGradient": 6.5
      },
      {
        "name": "Sainte Marie de Campan",
        "geoCoordinate": {
          "latitude": 42.9845237,
          "longitude": 0.227609
        },
        "length": 12.9,
        "totalAscent": 652,
        "difficulty": 431,
        "averageGradient": 5.1
      }
    ]
  },
  {
    "name": "Col d'Azet",
    "topOfTheAscent": 1580,
    "geoCoordinate": {
      "latitude": 42.7917574,
      "longitude": 0.3793701
    },
    "alternatives": [
      {
        "name": "Génos",
        "geoCoordinate": {
          "latitude": 42.8092997,
          "longitude": 0.4017553
        },
        "length": 7.4,
        "totalAscent": 622,
        "difficulty": 613,
        "averageGradient": 8.4
      },
      {
        "name": "Bourisp",
        "geoCoordinate": {
          "latitude": 42.8268864,
          "longitude": 0.3377524
        },
        "length": 10.5,
        "totalAscent": 770,
        "difficulty": 647,
        "averageGradient": 7.4
      }
    ]
  },
  {
    "name": "La Hourquette d'Ancizan",
    "topOfTheAscent": 1563,
    "geoCoordinate": {
      "latitude": 42.7951011,
      "longitude": 0.3717856
    },
    "alternatives": [
      {
        "name": "Ancizan",
        "geoCoordinate": {
          "latitude": 42.87193,
          "longitude": 0.34095
        },
        "length": 12.4,
        "totalAscent": 802,
        "difficulty": 589,
        "averageGradient": 6.5
      },
      {
        "name": "Campan",
        "geoCoordinate": {
          "latitude": 42.943493,
          "longitude": 0.278038
        },
        "length": 22.6,
        "totalAscent": 957,
        "difficulty": 563,
        "averageGradient": 4.2
      }
    ]
  },
  {
    "name": "Col d'Aubisque",
    "topOfTheAscent": 1709,
    "geoCoordinate": {
      "latitude": 42.9765752,
      "longitude": -0.339792
    },
    "alternatives": [
      {
        "name": "Laruns",
        "geoCoordinate": {
          "latitude": 42.9882368,
          "longitude": -0.4266324
        },
        "length": 16.5,
        "totalAscent": 1190,
        "difficulty": 857,
        "averageGradient": 7.2
      }
    ]
  },
  {
    "name": "Col du Soulor",
    "topOfTheAscent": 1474,
    "geoCoordinate": {
      "latitude": 42.9606159,
      "longitude": -0.2611338
    },
    "alternatives": [
      {
        "name": "Argelès-Gazost",
        "geoCoordinate": {
          "latitude": 43.00511,
          "longitude": -0.0997681
        },
        "length": 19.9,
        "totalAscent": 1256,
        "difficulty": 791,
        "averageGradient": 6.3
      }
    ]
  },
  {
    "name": "Port de Balès",
    "topOfTheAscent": 1755,
    "geoCoordinate": {
      "latitude": 42.8741673,
      "longitude": 0.5006369
    },
    "alternatives": [
      {
        "name": "Mauléon-Barousse",
        "geoCoordinate": {
          "latitude": 42.9594856,
          "longitude": 0.5674923
        },
        "length": 19.2,
        "totalAscent": 1200,
        "difficulty": 756,
        "averageGradient": 6.3
      }
    ]
  },
  {
    "name": "Port de Larrau",
    "topOfTheAscent": 1573,
    "geoCoordinate": {
      "latitude": 42.9741282,
      "longitude": -0.9938707
    },
    "alternatives": [
      {
        "name": "Larrau",
        "geoCoordinate": {
          "latitude": 43.0183998,
          "longitude": -0.95593
        },
        "length": 14.7,
        "totalAscent": 1205,
        "difficulty": 988,
        "averageGradient": 8.2
      }
    ]
  },
  {
    "name": "Port de Pailhères",
    "topOfTheAscent": 2001,
    "geoCoordinate": {
      "latitude": 42.7336009,
      "longitude": 1.9924599
    },
    "alternatives": [
      {
        "name": "Ax-les-Thermes",
        "geoCoordinate": {
          "latitude": 42.7193011,
          "longitude": 1.83784
        },
        "length": 16.8,
        "totalAscent": 1130,
        "difficulty": 768,
        "averageGradient": 6.8
      }
    ]
  },
  {
    "name": "Col de Soudet",
    "topOfTheAscent": 1540,
    "geoCoordinate": {
      "latitude": 42.9808,
      "longitude": -0.7443
    },
    "alternatives": [
      {
        "name": "Arette",
        "geoCoordinate": {
          "latitude": 43.0954277,
          "longitude": -0.7172145
        },
        "length": 23.8,
        "totalAscent": 1454,
        "difficulty": 887,
        "averageGradient": 6.1
      }
    ]
  },
  {
    "name": "Col de la Pierre Saint-Martin",
    "topOfTheAscent": 1760,
    "geoCoordinate": {
      "latitude": 42.9689511,
      "longitude": -0.7682888
    },
    "alternatives": [
      {
        "name": "Arette",
        "geoCoordinate": {
          "latitude": 43.0954277,
          "longitude": -0.7172145
        },
        "length": 25.0,
        "totalAscent": 1500,
        "difficulty": 900,
        "averageGradient": 6.0
      }
    ]
  }
]
