[
  {
    "name": "Col du Tourmalet",
    "topOfTheAscent": 2115,
    "geoCoordinate": {
      "latitude": 42.9083885,
      "longitude": 0.1452852
    },
    "alternatives": [
      {
        "name": "Luz Saint Sauveur",
        "geoCoordinate": {
          "latitude": 42.8732642,
          "longitude": -0.0030853
        },
        "length": 18.3,
        "totalAscent": 1401,
        "difficulty": 1133,
        "averageGradient": 7.7,
        "category": "HC"
      },
      {
        "name": "Sainte-Marie de Campan",
        "geoCoordinate": {
          "latitude": 42.984611,
          "longitude": 0.2274947
        },
        "length": 16.9,
        "totalAscent": 1266,
        "difficulty": 1055,
        "averageGradient": 7.5,
        "category": "HC"
      }
    ]
  },
  {
    "name": "Col de Portet",
    "topOfTheAscent": 2115,
    "geoCoordinate": {
      "latitude": 42.8332285,
      "longitude": 0.236803
    },
    "alternatives": [
      {
        "name": "Saint Lary Soulan",
        "geoCoordinate": {
          "latitude": 42.826117,
          "longitude": 0.317891
        },
        "length": 16.1,
        "totalAscent": 1409,
        "difficulty": 1381,
        "averageGradient": 8.7,
        "category": "HC"
      }
    ]
  },
  {
    "name": "Col d'Aspin",
    "topOfTheAscent": 1490,
    "geoCoordinate": {
      "latitude": 42.9422104,
      "longitude": 0.327221
    },
    "alternatives": [
      {
        "name": "Arreau",
        "geoCoordinate": {
          "latitude": 42.9094358,
          "longitude": 0.3599414
        },
        "length": 12.4,
        "totalAscent": 802,
        "difficulty": 589,
        "averageGradient": 6.5,
        "category": "2"
      },
      {
        "name": "Sainte Marie de Campan",
        "geoCoordinate": {
          "latitude": 42.9845237,
          "longitude": 0.227609
        },
        "length": 12.9,
        "totalAscent": 652,
        "difficulty": 431,
        "averageGradient": 5.1,
        "category": "2"
      }
    ]
  },
  {
    "name": "Col d'Azet",
    "topOfTheAscent": 1580,
    "geoCoordinate": {
      "latitude": 42.7917574,
      "longitude": 0.3793701
    },
    "alternatives": [
      {
        "name": "Génos",
        "geoCoordinate": {
          "latitude": 42.8092997,
          "longitude": 0.4017553
        },
        "length": 7.4,
        "totalAscent": 622,
        "difficulty": 613,
        "averageGradient": 8.4,
        "category": "1"
      },
      {
        "name": "Bourisp",
        "geoCoordinate": {
          "latitude": 42.8268864,
          "longitude": 0.3377524
        },
        "length": 10.5,
        "totalAscent": 770,
        "difficulty": 647,
        "averageGradient": 7.4,
        "category": "1"
      }
    ]
  },
  {
    "name": "La Hourquette d'Ancizan",
    "topOfTheAscent": 1563,
    "geoCoordinate": {
      "latitude": 42.7951011,
      "longitude": 0.3717856
    },
    "alternatives": [
      {
        "name": "Ancizan",
        "geoCoordinate": {
          "latitude": 42.87193,
          "longitude": 0.34095
        },
        "length": 12.4,
        "totalAscent": 802,
        "difficulty": 589,
        "averageGradient": 6.5,
        "category": "2"
      },
      {
        "name": "Campan",
        "geoCoordinate": {
          "latitude": 42.943493,
          "longitude": 0.278038
        },
        "length": 22.6,
        "totalAscent": 957,
        "difficulty": 563,
        "averageGradient": 4.2,
        "category": "2"
      }
    ]
  },
  {
    "name": "Col d'Aubisque",
    "topOfTheAscent": 1709,
    "geoCoordinate": {
      "latitude": 42.9765752,
      "longitude": -0.339792
    },
    "alternatives": [
      {
        "name": "Laruns",
        "geoCoordinate": {
          "latitude": 42.9882368,
          "longitude": -0.4266324
        },
        "length": 16.5,
        "totalAscent": 1190,
        "difficulty": 857,
        "averageGradient": 7.2,
        "category": "1"
      }
    ]
  },
  {
    "name": "Col du Soulor",
    "topOfTheAscent": 1474,
    "geoCoordinate": {
      "latitude": 42.9606159,
      "longitude": -0.2611338
    },
    "alternatives": [
      {
        "name": "Argelès-Gazost",
        "geoCoordinate": {
          "latitude": 43.00511,
          "longitude": -0.0997681
        },
        "length": 19.9,
        "totalAscent": 1256,
        "difficulty": 791,
        "averageGradient": 6.3,
        "category": "1"
      }
    ]
  },
  {
    "name": "Port de Balès",
    "topOfTheAscent": 1755,
    "geoCoordinate": {
      "latitude": 42.8741673,
      "longitude": 0.5006369
    },
    "alternatives": [
      {
        "name": "Mauléon-Barousse",
        "geoCoordinate": {
          "latitude": 42.9594856,
          "longitude": 0.5674923
        },
        "length": 19.2,
        "totalAscent": 1200,
        "difficulty": 756,
        "averageGradient": 6.3,
        "category": "1"
      }
    ]
  },
  {
    "name": "Port de Larrau",
    "topOfTheAscent": 1573,
    "geoCoordinate": {
      "latitude": 42.9741282,
      "longitude": -0.9938707
    },
    "alternatives": [
      {
        "name": "Larrau",
        "geoCoordinate": {
          "latitude": 43.0183998,
          "longitude": -0.95593
        },
        "length": 14.7,
        "totalAscent": 1205,
        "difficulty": 988,
        "averageGradient": 8.2,
        "category": "1"
      }
    ]
  },
  {
    "name": "Port de Pailhères",
    "topOfTheAscent": 2001,
    "geoCoordinate": {
      "latitude": 42.7336009,
      "longitude": 1.9924599
    },
    "alternatives": [
      {
        "name": "Ax-les-Thermes",
        "geoCoordinate": {
          "latitude": 42.7193011,
          "longitude": 1.83784
        },
        "length": 16.8,
        "totalAscent": 1130,
        "difficulty": 768,
        "averageGradient": 6.8,
        "category": "1"
      }
    ]
  },
  {
    "name": "Col de Soudet",
    "topOfTheAscent": 1540,
    "geoCoordinate": {
      "latitude": 42.9808,
      "longitude": -0.7443
    },
    "alternatives": [
      {
        "name": "Arette",
        "geoCoordinate": {
          "latitude": 43.0954277,
          "longitude": -0.7172145
        },
        "length": 23.8,
        "totalAscent": 1454,
        "difficulty": 887,
        "averageGradient": 6.1,
        "category": "1"
      }
    ]
  },
  {
    "name": "Col de la Pierre Saint-Martin",
    "topOfTheAscent": 1760,
    "geoCoordinate": {
      "latitude": 42.9689511,
      "longitude": -0.7682888
    },
    "alternatives": [
      {
        "name": "Arette",
        "geoCoordinate": {
          "latitude": 43.0954277,
          "longitude": -0.7172145
        },
        "length": 25.0,
        "totalAscent": 1500,
        "difficulty": 900,
        "averageGradient": 6.0,
        "category": "1"
      }
    ]
  },
  {
    "name": "Col de Peyresourde",
    "topOfTheAscent": 1569,
    "geoCoordinate": {
      "latitude": 42.8013,
      "longitude": 0.4577
    },
    "alternatives": [
      {
        "name": "Bagnères-de-Luchon",
        "geoCoordinate": {
          "latitude": 42.7904,
          "longitude": 0.5921
        },
        "length": 15.3,
        "totalAscent": 939,
        "difficulty": 650,
        "averageGradient": 6.1,
        "category": "1"
      }
    ]
  },
  {
    "name": "Col du Portillon",
    "topOfTheAscent": 1293,
    "geoCoordinate": {
      "latitude": 42.7559,
      "longitude": 0.6948
    },
    "alternatives": [
      {
        "name": "Bagnères-de-Luchon",
        "geoCoordinate": {
          "latitude": 42.7904,
          "longitude": 0.5921
        },
        "length": 8.3,
        "totalAscent": 620,
        "difficulty": 520,
        "averageGradient": 7.4,
        "category": "2"
      }
    ]
  },
  {
    "name": "Col de Menté",
    "topOfTheAscent": 1349,
    "geoCoordinate": {
      "latitude": 42.8897,
      "longitude": 0.7605
    },
    "alternatives": [
      {
        "name": "Saint-Béat-Lez",
        "geoCoordinate": {
          "latitude": 42.915,
          "longitude": 0.6953
        },
        "length": 9.3,
        "totalAscent": 664,
        "difficulty": 530,
        "averageGradient": 7.1,
        "category": "2"
      }
    ]
  },
  {
    "name": "Col du Portet-d'Aspet",
    "topOfTheAscent": 1069,
    "geoCoordinate": {
      "latitude": 42.9075,
      "longitude": 0.8083
    },
    "alternatives": [
      {
        "name": "Aspet",
        "geoCoordinate": {
          "latitude": 43.0143,
          "longitude": 0.8039
        },
        "length": 14.2,
        "totalAscent": 640,
        "difficulty": 390,
        "averageGradient": 4.5,
        "category": "2"
      }
    ]
  },
  {
    "name": "Col de Marie-Blanque",
    "topOfTheAscent": 1035,
    "geoCoordinate": {
      "latitude": 43.049,
      "longitude": -0.531
    },
    "alternatives": [
      {
        "name": "Escot",
        "geoCoordinate": {
          "latitude": 43.109,
          "longitude": -0.595
        },
        "length": 9.3,
        "totalAscent": 715,
        "difficulty": 620,
        "averageGradient": 7.7,
        "category": "1"
      }
    ]
  },
  {
    "name": "Col d'Agnès",
    "topOfTheAscent": 1570,
    "geoCoordinate": {
      "latitude": 42.7667,
      "longitude": 1.3703
    },
    "alternatives": [
      {
        "name": "Aulus-les-Bains",
        "geoCoordinate": {
          "latitude": 42.7873,
          "longitude": 1.3399
        },
        "length": 10.0,
        "totalAscent": 786,
        "difficulty": 680,
        "averageGradient": 7.9,
        "category": "1"
      }
    ]
  },
  {
    "name": "Col de Latrape",
    "topOfTheAscent": 1110,
    "geoCoordinate": {
      "latitude": 42.9326,
      "longitude": 1.2669
    },
    "alternatives": [
      {
        "name": "Seix",
        "geoCoordinate": {
          "latitude": 42.8617,
          "longitude": 1.2013
        },
        "length": 11.2,
        "totalAscent": 725,
        "difficulty": 560,
        "averageGradient": 6.5,
        "category": "2"
      }
    ]
  },
  {
    "name": "Col de la Core",
    "topOfTheAscent": 1395,
    "geoCoordinate": {
      "latitude": 42.8443,
      "longitude": 1.1947
    },
    "alternatives": [
      {
        "name": "Castillon-en-Couserans",
        "geoCoordinate": {
          "latitude": 42.9188,
          "longitude": 1.0356
        },
        "length": 14.1,
        "totalAscent": 1000,
        "difficulty": 780,
        "averageGradient": 7.1,
        "category": "1"
      }
    ]
  },
  {
    "name": "Col de Port",
    "topOfTheAscent": 1249,
    "geoCoordinate": {
      "latitude": 42.8867,
      "longitude": 1.4306
    },
    "alternatives": [
      {
        "name": "Tarascon-sur-Ariège",
        "geoCoordinate": {
          "latitude": 42.8459,
          "longitude": 1.6053
        },
        "length": 16.8,
        "totalAscent": 1100,
        "difficulty": 760,
        "averageGradient": 6.5,
        "category": "1"
      }
    ]
  },
  {
    "name": "Col de Jau",
    "topOfTheAscent": 1506,
    "geoCoordinate": {
      "latitude": 42.6908,
      "longitude": 2.2526
    },
    "alternatives": [
      {
        "name": "Mosset",
        "geoCoordinate": {
          "latitude": 42.6686,
          "longitude": 2.2772
        },
        "length": 12.3,
        "totalAscent": 980,
        "difficulty": 790,
        "averageGradient": 8.0,
        "category": "1"
      }
    ]
  },
  {
    "name": "Col de Spandelles",
    "topOfTheAscent": 1378,
    "geoCoordinate": {
      "latitude": 42.966,
      "longitude": -0.1955
    },
    "alternatives": [
      {
        "name": "Argelès-Gazost",
        "geoCoordinate": {
          "latitude": 43.00511,
          "longitude": -0.0997681
        },
        "length": 10.3,
        "totalAscent": 780,
        "difficulty": 650,
        "averageGradient": 7.6,
        "category": "1"
      }
    ]
  },
  {
    "name": "Hautacam",
    "topOfTheAscent": 1520,
    "geoCoordinate": {
      "latitude": 42.9614,
      "longitude": -0.0903
    },
    "alternatives": [
      {
        "name": "Argelès-Gazost",
        "geoCoordinate": {
          "latitude": 43.00511,
          "longitude": -0.0997681
        },
        "length": 13.6,
        "totalAscent": 1170,
        "difficulty": 1050,
        "averageGradient": 8.6,
        "category": "HC"
      }
    ]
  },
  {
    "name": "Col de Lers",
    "topOfTheAscent": 1517,
    "geoCoordinate": {
      "latitude": 42.865,
      "longitude": 1.412
    },
    "alternatives": [
      {
        "name": "Massat",
        "geoCoordinate": {
          "latitude": 42.889,
          "longitude": 1.3482
        },
        "length": 11.4,
        "totalAscent": 760,
        "difficulty": 580,
        "averageGradient": 6.7,
        "category": "2"
      }
    ]
  }
]
